$GPGGA,174837.000,4328.5682,N,09057.1171,W,1,6,1.94,342.6,M,-34.0,M,,*6A
$GPGSA,A,3,02,10,05,12,25,29,,,,,,,4.28,1.94,3.81*03
$GPRMC,174837.000,A,4328.5682,N,09057.1171,W,0.73,25.98,221210,,,A*4B
$GPZDA,174837.000,22,12,2010,,*58
$GPGGA,174837.000,4328.5682,N,09057.1171,W,1,6,1.94,342.6,M,-34.0,M,,*6A
$GPGSA,A,3,02,10,05,12,25,29,,,,,,,4.28,1.94,3.81*03
$GPRMC,174837.000,A,4328.5682,N,09057.1171,W,0.73,25.98,221210,,,A*4B
$GPZDA,174837.000,22,12,2010,,*58
$GPGGA,174837.000,4328.5682,N,09057.1171,W,1,6,1.94,342.6,M,-34.0,M,,*6A
$GPGSA,A,3,02,10,05,12,25,29,,,,,,,4.28,1.94,3.81*03
$GPRMC,174837.000,A,4328.5682,N,09057.1171,W,0.73,25.98,221210,,,A*4B
$GPZDA,174837.000,22,12,2010,,*58
$GPGGA,174837.000,4328.5682,N,09057.1171,W,1,6,1.94,342.6,M,-34.0,M,,*6A
$GPGSA,A,3,02,10,05,12,25,29,,,,,,,4.28,1.94,3.81*03
$GPRMC,174837.000,A,4328.5682,N,09057.1171,W,0.73,25.98,221210,,,A*4B
$GPZDA,174837.000,22,12,2010,,*58
$GPGGA,174837.000,4328.5682,N,09057.1171,W,1,6,1.94,342.6,M,-34.0,M,,*6A
$GPGSA,A,3,02,10,05,12,25,29,,,,,,,4.28,1.94,3.81*03
$GPRMC,174837.000,A,4328.5682,N,09057.1171,W,0.73,25.98,221210,,,A*4B
$GPZDA,174837.000,22,12,2010,,*58
$GPGGA,174837.000,4328.5682,N,09057.1171,W,1,6,1.94,342.6,M,-34.0,M,,*6A
$GPGSA,A,3,02,10,05,12,25,29,,,,,,,4.28,1.94,3.81*03
$GPRMC,174837.000,A,4328.5682,N,09057.1171,W,0.73,25.98,221210,,,A*4B
$GPZDA,174837.000,22,12,2010,,*58
$GPGGA,174837.000,4328.5682,N,09057.1171,W,1,6,1.94,342.6,M,-34.0,M,,*6A
$GPGSA,A,3,02,10,05,12,25,29,,,,,,,4.28,1.94,3.81*03
$GPRMC,174837.000,A,4328.5682,N,09057.1171,W,0.73,25.98,221210,,,A*4B
$GPZDA,174837.000,22,12,2010,,*58
$GPGGA,174837.000,4328.5682,N,09057.1171,W,1,6,1.94,342.6,M,-34.0,M,,*6A
$GPGSA,A,3,02,10,05,12,25,29,,,,,,,4.28,1.94,3.81*03
$GPRMC,174837.000,A,4328.5682,N,09057.1171,W,0.73,25.98,221210,,,A*4B
$GPZDA,174837.000,22,12,2010,,*58
$GPGGA,174837.000,4328.5682,N,09057.1171,W,1,6,1.94,342.6,M,-34.0,M,,*6A
$GPGSA,A,3,02,10,05,12,25,29,,,,,,,4.28,1.94,3.81*03
$GPRMC,174837.000,A,4328.5682,N,09057.1171,W,0.73,25.98,221210,,,A*4B
$GPZDA,174837.000,22,12,2010,,*58
$GPGGA,174837.000,4328.5682,N,09057.1171,W,1,6,1.94,342.6,M,-34.0,M,,*6A
$GPGSA,A,3,02,10,05,12,25,29,,,,,,,4.28,1.94,3.81*03
$GPRMC,174837.000,A,4328.5682,N,09057.1171,W,0.73,25.98,221210,,,A*4B
$GPZDA,174837.000,22,12,2010,,*58
$GPGGA,174837.000,4328.5682,N,09057.1171,W,1,6,1.94,342.6,M,-34.0,M,,*6A
$GPGSA,A,3,02,10,05,12,25,29,,,,,,,4.28,1.94,3.81*03
$GPRMC,174837.000,A,4328.5682,N,09057.1171,W,0.73,25.98,221210,,,A*4B
$GPZDA,174837.000,22,12,2010,,*58
$GPGGA,174837.000,4328.5682,N,09057.1171,W,1,6,1.94,342.6,M,-34.0,M,,*6A
$GPGSA,A,3,02,10,05,12,25,29,,,,,,,4.28,1.94,3.81*03
$GPRMC,174837.000,A,4328.5682,N,09057.1171,W,0.73,25.98,221210,,,A*4B
$GPZDA,174837.000,22,12,2010,,*58
$GPGGA,174837.000,4328.5682,N,09057.1171,W,1,6,1.94,342.6,M,-34.0,M,,*6A
$GPGSA,A,3,02,10,05,12,25,29,,,,,,,4.28,1.94,3.81*03
$GPRMC,174837.000,A,4328.5682,N,09057.1171,W,0.73,25.98,221210,,,A*4B
$GPZDA,174837.000,22,12,2010,,*58
$GPGGA,174837.000,4328.5682,N,09057.1171,W,1,6,1.94,342.6,M,-34.0,M,,*6A
$GPGSA,A,3,02,10,05,12,25,29,,,,,,,4.28,1.94,3.81*03
$GPRMC,174837.000,A,4328.5682,N,09057.1171,W,0.73,25.98,221210,,,A*4B
$GPZDA,174837.000,22,12,2010,,*58
$GPGGA,174837.000,4328.5682,N,09057.1171,W,1,6,1.94,342.6,M,-34.0,M,,*6A
$GPGSA,A,3,02,10,05,12,25,29,,,,,,,4.28,1.94,3.81*03
$GPRMC,174837.000,A,4328.5682,N,09057.1171,W,0.73,25.98,221210,,,A*4B
$GPZDA,174837.000,22,12,2010,,*58
$GPGGA,174837.000,4328.5682,N,09057.1171,W,1,6,1.94,342.6,M,-34.0,M,,*6A
$GPGSA,A,3,02,10,05,12,25,29,,,,,,,4.28,1.94,3.81*03
$GPRMC,174837.000,A,4328.5682,N,09057.1171,W,0.73,25.98,221210,,,A*4B
$GPZDA,174837.000,22,12,2010,,*58
$GPGGA,174837.000,4328.5682,N,09057.1171,W,1,6,1.94,342.6,M,-34.0,M,,*6A
$GPGSA,A,3,02,10,05,12,25,29,,,,,,,4.28,1.94,3.81*03
$GPRMC,174837.000,A,4328.5682,N,09057.1171,W,0.73,25.98,221210,,,A*4B
$GPZDA,174837.000,22,12,2010,,*58
$GPGGA,174837.000,4328.5682,N,09057.1171,W,1,6,1.94,342.6,M,-34.0,M,,*6A
$GPGSA,A,3,02,10,05,12,25,29,,,,,,,4.28,1.94,3.81*03
$GPRMC,174837.000,A,4328.5682,N,09057.1171,W,0.73,25.98,221210,,,A*4B
$GPZDA,174837.000,22,12,2010,,*58
$GPGGA,174837.000,4328.5682,N,09057.1171,W,1,6,1.94,342.6,M,-34.0,M,,*6A
$GPGSA,A,3,02,10,05,12,25,29,,,,,,,4.28,1.94,3.81*03
$GPRMC,174837.000,A,4328.5682,N,09057.1171,W,0.73,25.98,221210,,,A*4B
$GPZDA,174837.000,22,12,2010,,*58
$GPGGA,174837.000,4328.5682,N,09057.1171,W,1,6,1.94,342.6,M,-34.0,M,,*6A
$GPGSA,A,3,02,10,05,12,25,29,,,,,,,4.28,1.94,3.81*03
$GPRMC,174837.000,A,4328.5682,N,09057.1171,W,0.73,25.98,221210,,,A*4B
$GPZDA,174837.000,22,12,2010,,*58
$GPGGA,174837.000,4328.5682,N,09057.1171,W,1,6,1.94,342.6,M,-34.0,M,,*6A
$GPGSA,A,3,02,10,05,12,25,29,,,,,,,4.28,1.94,3.81*03
$GPRMC,174837.000,A,4328.5682,N,09057.1171,W,0.73,25.98,221210,,,A*4B
$GPZDA,174837.000,22,12,2010,,*58
$GPGGA,174837.000,4328.5682,N,09057.1171,W,1,6,1.94,342.6,M,-34.0,M,,*6A
$GPGSA,A,3,02,10,05,12,25,29,,,,,,,4.28,1.94,3.81*03
$GPRMC,174837.000,A,4328.5682,N,09057.1171,W,0.73,25.98,221210,,,A*4B
$GPZDA,174837.000,22,12,2010,,*58
$GPGGA,174837.000,4328.5682,N,09057.1171,W,1,6,1.94,342.6,M,-34.0,M,,*6A
$GPGSA,A,3,02,10,05,12,25,29,,,,,,,4.28,1.94,3.81*03
$GPRMC,174837.000,A,4328.5682,N,09057.1171,W,0.73,25.98,221210,,,A*4B
$GPZDA,174837.000,22,12,2010,,*58
$GPGGA,174837.000,4328.5682,N,09057.1171,W,1,6,1.94,342.6,M,-34.0,M,,*6A
$GPGSA,A,3,02,10,05,12,25,29,,,,,,,4.28,1.94,3.81*03
$GPRMC,174837.000,A,4328.5682,N,09057.1171,W,0.73,25.98,221210,,,A*4B
$GPZDA,174837.000,22,12,2010,,*58
$GPGGA,174837.000,4328.5682,N,09057.1171,W,1,6,1.94,342.6,M,-34.0,M,,*6A
$GPGSA,A,3,02,10,05,12,25,29,,,,,,,4.28,1.94,3.81*03
$GPRMC,174837.000,A,4328.5682,N,09057.1171,W,0.73,25.98,221210,,,A*4B
$GPZDA,174837.000,22,12,2010,,*58
