$YXXDR,A,0.1,D,PTCH,A,-2.0,D,ROLL*73
$HCHDT,4.3,T*2E
$YXXDR,C,,C,WCHR,C,,C,WCHT,C,,C,HINX,P,0.9704,B,STNP*41
$WIMWV,359.6,R,0.0,N,A*2A
$GPZDA,221233.60,19,11,2014,00,00*6C
$HCHDT,3.5,T*2F
$GPVTG,139.5,T,140.9,M,0.0,N,0.0,K,D*24
$WIMWV,355.8,T,0.0,N,A*2E
$GPGGA,221233.80,4328.5718,N,09057.1076,W,2,9,1.2,344.0,M,-32.4,M,,*6A
$WIMDA,29.8519,I,1.0109,B,26.1,C,,,16.3,,-1.4,C,0.0,T,1.4,M,0.0,N,0.0,M*72
$YXXDR,A,0.1,D,PTCH,A,-2.0,D,ROLL*73
$HCHDT,3.9,T*23
$YXXDR,C,,C,WCHR,C,,C,WCHT,C,,C,HINX,P,0.9705,B,STNP*40
$WIMWV,91.1,R,0.1,N,A*1B
$GPZDA,221234.60,19,11,2014,00,00*6B
$HCHDT,4.4,T*29
$GPVTG,172.4,T,173.8,M,0.0,N,0.0,K,D*2B
$WIMWV,91.0,T,0.2,N,A*1F
$GPGGA,221234.80,4328.5718,N,09057.1076,W,2,9,1.2,344.0,M,-32.4,M,,*6D
$WIMDA,29.8548,I,1.0110,B,26.1,C,,,16.3,,-1.4,C,95.1,T,96.5,M,0.2,N,0.1,M*7F
$YXXDR,A,0.1,D,PTCH,A,-2.0,D,ROLL*73
$HCHDT,4.2,T*2F
$YXXDR,C,,C,WCHR,C,,C,WCHT,C,,C,HINX,P,0.9705,B,STNP*40
$WIMWV,91.1,R,0.3,N,A*19
$GPZDA,221235.60,19,11,2014,00,00*6A
$HCHDT,4.4,T*29
$GPVTG,150.1,T,151.5,M,0.0,N,0.0,K,D*23
$WIMWV,91.0,T,0.1,N,A*1C
$GPGGA,221235.80,4328.5718,N,09057.1076,W,2,9,1.2,344.0,M,-32.4,M,,*6C
$WIMDA,29.8548,I,1.0110,B,26.1,C,,,16.3,,-1.4,C,94.5,T,95.9,M,0.1,N,0.1,M*76
$YXXDR,A,0.2,D,PTCH,A,-2.0,D,ROLL*70
$HCHDT,4.1,T*2C
$YXXDR,C,,C,WCHR,C,,C,WCHT,C,,C,HINX,P,0.9704,B,STNP*41
$WIMWV,359.6,R,0.0,N,A*2A
$GPZDA,221236.60,19,11,2014,00,00*69
$HCHDT,4.4,T*29
$GPVTG,36.7,T,38.1,M,0.0,N,0.0,K,D*2E
$WIMWV,356.3,T,0.0,N,A*26
$GPGGA,221236.80,4328.5718,N,09057.1076,W,2,9,1.2,344.0,M,-32.4,M,,*6F
$WIMDA,29.8519,I,1.0109,B,26.1,C,,,16.3,,-1.4,C,95.4,T,96.8,M,0.0,N,0.0,M*78
$YXXDR,A,0.2,D,PTCH,A,-2.0,D,ROLL*70
$HCHDT,5.1,T*2D
$YXXDR,C,,C,WCHR,C,,C,WCHT,C,,C,HINX,P,0.9705,B,STNP*40
$WIMWV,91.1,R,0.3,N,A*19
$GPZDA,221237.60,19,11,2014,00,00*68
$HCHDT,5.2,T*2E
$GPVTG,10.3,T,11.7,M,0.0,N,0.0,K,D*23
$WIMWV,91.0,T,0.2,N,A*1F
$GPGGA,221237.80,4328.5718,N,09057.1076,W,2,9,1.2,344.0,M,-32.4,M,,*6E
$WIMDA,29.8548,I,1.0110,B,26.1,C,,,16.3,,-1.4,C,94.9,T,96.3,M,0.2,N,0.1,M*70
$YXXDR,A,0.2,D,PTCH,A,-2.0,D,ROLL*70
$HCHDT,3.6,T*2C
$YXXDR,C,,C,WCHR,C,,C,WCHT,C,,C,HINX,P,0.9705,B,STNP*40
$WIMWV,91.1,R,0.3,N,A*19
$GPZDA,221238.60,19,11,2014,00,00*67
$HCHDT,3.9,T*23
$GPVTG,109.3,T,110.7,M,0.0,N,0.0,K,D*2A
$WIMWV,91.0,T,0.1,N,A*1C
$GPGGA,221238.80,4328.5718,N,09057.1076,W,2,9,1.2,343.9,M,-32.4,M,,*6F
$WIMDA,29.8548,I,1.0110,B,26.1,C,,,16.3,,-1.4,C,94.6,T,96.0,M,0.1,N,0.1,M*7F
$YXXDR,A,0.2,D,PTCH,A,-2.0,D,ROLL*70
$HCHDT,5.0,T*2C
$YXXDR,C,,C,WCHR,C,,C,WCHT,C,,C,HINX,P,0.9705,B,STNP*40
$WIMWV,91.1,R,0.3,N,A*19
$GPZDA,221239.60,19,11,2014,00,00*66
$HCHDT,4.2,T*2F
$GPVTG,127.6,T,129.0,M,0.0,N,0.0,K,D*2E
$WIMWV,91.1,T,0.2,N,A*1E
$GPGGA,221239.80,4328.5719,N,09057.1076,W,2,9,1.2,343.9,M,-32.4,M,,*6F
$WIMDA,29.8548,I,1.0110,B,26.1,C,,,16.3,,-1.4,C,95.1,T,96.5,M,0.2,N,0.1,M*7F
$YXXDR,A,0.2,D,PTCH,A,-2.0,D,ROLL*70
$HCHDT,3.8,T*22
$YXXDR,C,,C,WCHR,C,,C,WCHT,C,,C,HINX,P,0.9704,B,STNP*41
$WIMWV,91.1,R,0.1,N,A*1B
$GPZDA,221240.60,19,11,2014,00,00*68
$HCHDT,5.0,T*2C
$GPVTG,139.3,T,140.7,M,0.0,N,0.0,K,D*2C
$WIMWV,91.1,T,0.2,N,A*1E
$GPGGA,221240.80,4328.5719,N,09057.1076,W,2,9,1.2,344.0,M,-32.4,M,,*6F
$WIMDA,29.8519,I,1.0109,B,26.1,C,,,16.2,,-1.5,C,94.5,T,95.9,M,0.2,N,0.1,M*79
$YXXDR,A,0.2,D,PTCH,A,-2.0,D,ROLL*70
$HCHDT,4.9,T*24
$YXXDR,C,,C,WCHR,C,,C,WCHT,C,,C,HINX,P,0.9705,B,STNP*40
$WIMWV,91.1,R,0.2,N,A*18
$GPZDA,221241.60,19,11,2014,00,00*69
$HCHDT,4.0,T*2D
$GPVTG,172.2,T,173.6,M,0.0,N,0.0,K,D*23
$WIMWV,356.1,T,0.0,N,A*24
$GPGGA,221241.80,4328.5719,N,09057.1076,W,2,9,1.2,344.0,M,-32.4,M,,*6E
$WIMDA,29.8548,I,1.0110,B,26.1,C,,,16.2,,-1.5,C,0.0,T,1.4,M,0.0,N,0.0,M*7E
$YXXDR,A,0.2,D,PTCH,A,-2.0,D,ROLL*70
$HCHDT,4.0,T*2D
$YXXDR,C,,C,WCHR,C,,C,WCHT,C,,C,HINX,P,0.9705,B,STNP*40
$WIMWV,91.1,R,0.2,N,A*18
$GPZDA,221242.60,19,11,2014,00,00*6A
$HCHDT,5.0,T*2C
$GPVTG,137.3,T,138.7,M,0.0,N,0.0,K,D*2D
$WIMWV,91.1,T,0.0,N,A*1C
$GPGGA,221242.80,4328.5719,N,09057.1076,W,2,9,1.2,344.0,M,-32.4,M,,*6D
$WIMDA,29.8548,I,1.0110,B,26.1,C,,,16.2,,-1.5,C,95.9,T,97.3,M,0.2,N,0.1,M*70
$YXXDR,A,0.1,D,PTCH,A,-2.0,D,ROLL*73
$HCHDT,3.6,T*2C
$YXXDR,C,,C,WCHR,C,,C,WCHT,C,,C,HINX,P,0.9704,B,STNP*41
$WIMWV,359.6,R,0.0,N,A*2A
$GPZDA,221243.60,19,11,2014,00,00*6B
$HCHDT,3.8,T*22
$GPVTG,15.1,T,16.5,M,0.0,N,0.0,K,D*21
$WIMWV,91.1,T,0.1,N,A*1D
$GPGGA,221243.80,4328.5719,N,09057.1076,W,2,9,1.2,344.1,M,-32.4,M,,*6D
$WIMDA,29.8519,I,1.0109,B,26.1,C,,,16.2,,-1.5,C,0.0,T,1.4,M,0.0,N,0.0,M*72
$YXXDR,A,0.1,D,PTCH,A,-2.0,D,ROLL*73
$HCHDT,4.6,T*2B
$YXXDR,C,,C,WCHR,C,,C,WCHT,C,,C,HINX,P,0.9704,B,STNP*41
$WIMWV,91.1,R,0.2,N,A*18
$GPZDA,221244.60,19,11,2014,00,00*6C
$HCHDT,4.1,T*2C
$GPVTG,17.2,T,18.6,M,0.0,N,0.0,K,D*2D
$WIMWV,91.0,T,0.3,N,A*1E
$GPGGA,221244.80,4328.5719,N,09057.1077,W,2,9,1.2,344.1,M,-32.4,M,,*6B
$WIMDA,29.8519,I,1.0109,B,26.1,C,,,16.3,,-1.4,C,94.7,T,96.1,M,0.2,N,0.1,M*70
$YXXDR,A,0.2,D,PTCH,A,-2.0,D,ROLL*70
$HCHDT,4.5,T*28
$YXXDR,C,,C,WCHR,C,,C,WCHT,C,,C,HINX,P,0.9705,B,STNP*40
$WIMWV,359.6,R,0.0,N,A*2A
$GPZDA,221245.60,19,11,2014,00,00*6D
$HCHDT,3.8,T*22
$GPVTG,13.3,T,14.7,M,0.0,N,0.0,K,D*25
$WIMWV,355.7,T,0.0,N,A*21
$GPGGA,221245.80,4328.5719,N,09057.1077,W,2,9,1.2,344.1,M,-32.4,M,,*6A
$WIMDA,29.8548,I,1.0110,B,26.1,C,,,16.3,,-1.4,C,95.9,T,97.3,M,0.2,N,0.1,M*70
$YXXDR,A,0.1,D,PTCH,A,-2.0,D,ROLL*73
$HCHDT,4.0,T*2D
$YXXDR,C,,C,WCHR,C,,C,WCHT,C,,C,HINX,P,0.9704,B,STNP*41
$WIMWV,359.6,R,0.0,N,A*2A
$GPZDA,221246.60,19,11,2014,00,00*6E
$HCHDT,4.3,T*2E
$GPVTG,46.9,T,48.3,M,0.0,N,0.0,K,D*22
$WIMWV,91.0,T,0.2,N,A*1F
$GPGGA,221246.80,4328.5719,N,09057.1077,W,2,9,1.2,344.2,M,-32.4,M,,*6A
$WIMDA,29.8548,I,1.0110,B,26.1,C,,,16.3,,-1.4,C,0.0,T,1.4,M,0.0,N,0.0,M*7E
$YXXDR,A,0.1,D,PTCH,A,-2.0,D,ROLL*73
$HCHDT,4.4,T*29
$YXXDR,C,,C,WCHR,C,,C,WCHT,C,,C,HINX,P,0.9704,B,STNP*41
$WIMWV,91.1,R,0.3,N,A*19
$GPZDA,221247.60,19,11,2014,00,00*6F
$HCHDT,4.8,T*25
$GPVTG,121.3,T,122.7,M,0.0,N,0.0,K,D*21
$WIMWV,91.1,T,0.3,N,A*1F
$GPGGA,221247.80,4328.5719,N,09057.1077,W,2,9,1.2,344.2,M,-32.4,M,,*6B
$WIMDA,29.8548,I,1.0110,B,26.1,C,,,16.3,,-1.4,C,0.0,T,1.4,M,0.0,N,0.0,M*7E
$YXXDR,A,0.1,D,PTCH,A,-2.0,D,ROLL*73
$HCHDT,4.4,T*29
$YXXDR,C,,C,WCHR,C,,C,WCHT,C,,C,HINX,P,0.9704,B,STNP*41
$WIMWV,91.1,R,0.2,N,A*18
$GPZDA,221248.60,19,11,2014,00,00*60
$HCHDT,4.3,T*2E
$GPVTG,123.1,T,124.5,M,0.0,N,0.0,K,D*25
$WIMWV,91.0,T,0.3,N,A*1E
$GPGGA,221248.80,4328.5719,N,09057.1077,W,2,9,1.2,344.2,M,-32.4,M,,*64
$WIMDA,29.8548,I,1.0110,B,26.1,C,,,16.3,,-1.4,C,95.5,T,96.9,M,0.2,N,0.1,M*77
$YXXDR,A,0.1,D,PTCH,A,-2.0,D,ROLL*73
$HCHDT,4.9,T*24
$YXXDR,C,,C,WCHR,C,,C,WCHT,C,,C,HINX,P,0.9704,B,STNP*41
$WIMWV,91.1,R,0.2,N,A*18
$GPZDA,221249.60,19,11,2014,00,00*61
$HCHDT,3.8,T*22
$GPVTG,308.5,T,309.9,M,0.0,N,0.0,K,D*2B
$WIMWV,91.0,T,0.1,N,A*1C
$GPGGA,221249.80,4328.5719,N,09057.1077,W,2,9,1.2,344.2,M,-32.4,M,,*65
$WIMDA,29.8548,I,1.0110,B,26.1,C,,,16.3,,-1.4,C,94.8,T,96.2,M,0.1,N,0.1,M*73
$YXXDR,A,0.1,D,PTCH,A,-2.0,D,ROLL*73
$HCHDT,4.1,T*2C
$YXXDR,C,,C,WCHR,C,,C,WCHT,C,,C,HINX,P,0.9704,B,STNP*41
$WIMWV,91.1,R,0.2,N,A*18
$GPZDA,221250.60,19,11,2014,00,00*69
$HCHDT,4.1,T*2C
$GPVTG,169.7,T,171.1,M,0.0,N,0.0,K,D*29
$WIMWV,355.6,T,0.0,N,A*20
$GPGGA,221250.80,4328.5719,N,09057.1077,W,2,9,1.2,344.3,M,-32.4,M,,*6C
$WIMDA,29.8548,I,1.0110,B,26.1,C,,,16.2,,-1.5,C,95.1,T,96.5,M,0.2,N,0.1,M*7F
$YXXDR,A,0.1,D,PTCH,A,-2.0,D,ROLL*73
$HCHDT,3.6,T*2C
$YXXDR,C,,C,WCHR,C,,C,WCHT,C,,C,HINX,P,0.9705,B,STNP*40
$WIMWV,359.6,R,0.0,N,A*2A
$GPZDA,221251.60,19,11,2014,00,00*68
$HCHDT,4.5,T*28
$GPVTG,128.8,T,130.2,M,0.0,N,0.0,K,D*25
$WIMWV,91.1,T,0.1,N,A*1D
$GPGGA,221251.80,4328.5719,N,09057.1077,W,2,9,1.2,344.3,M,-32.4,M,,*6D
$WIMDA,29.8578,I,1.0111,B,26.1,C,,,16.2,,-1.5,C,94.7,T,96.1,M,0.2,N,0.1,M*7E
$YXXDR,A,0.1,D,PTCH,A,-2.0,D,ROLL*73
$HCHDT,4.0,T*2D
$YXXDR,C,,C,WCHR,C,,C,WCHT,C,,C,HINX,P,0.9705,B,STNP*40
$WIMWV,359.6,R,0.0,N,A*2A
$GPZDA,221252.60,19,11,2014,00,00*6B
$HCHDT,4.3,T*2E
$GPVTG,175.5,T,176.9,M,0.0,N,0.0,K,D*29
$WIMWV,355.2,T,0.0,N,A*24
$GPGGA,221252.80,4328.5719,N,09057.1077,W,2,9,1.2,344.2,M,-32.4,M,,*6F
$WIMDA,29.8578,I,1.0111,B,26.1,C,,,16.1,,-1.6,C,0.0,T,1.4,M,0.0,N,0.0,M*7C
$YXXDR,A,0.1,D,PTCH,A,-2.0,D,ROLL*73
$HCHDT,4.3,T*2E
$YXXDR,C,,C,WCHR,C,,C,WCHT,C,,C,HINX,P,0.9705,B,STNP*40
$WIMWV,359.6,R,0.0,N,A*2A
$GPZDA,221253.60,19,11,2014,00,00*6A
$HCHDT,4.2,T*2F
$GPVTG,179.9,T,181.3,M,0.0,N,0.0,K,D*2B
$WIMWV,355.6,T,0.0,N,A*20
$GPGGA,221253.80,4328.5718,N,09057.1077,W,2,9,1.2,344.3,M,-32.4,M,,*6E
$WIMDA,29.8578,I,1.0111,B,26.1,C,,,16.1,,-1.6,C,0.0,T,1.4,M,0.0,N,0.0,M*7C
$YXXDR,A,0.1,D,PTCH,A,-2.0,D,ROLL*73
$HCHDT,3.9,T*23
$YXXDR,C,,C,WCHR,C,,C,WCHT,C,,C,HINX,P,0.9705,B,STNP*40
$WIMWV,359.6,R,0.0,N,A*2A
$GPZDA,221254.60,19,11,2014,00,00*6D
$HCHDT,4.5,T*28
$GPVTG,174.1,T,175.5,M,0.0,N,0.0,K,D*23
$WIMWV,355.7,T,0.0,N,A*21
$GPGGA,221254.80,4328.5718,N,09057.1077,W,2,9,1.2,344.3,M,-32.4,M,,*69
$WIMDA,29.8578,I,1.0111,B,26.1,C,,,16.2,,-1.5,C,0.0,T,1.4,M,0.0,N,0.0,M*7C
$YXXDR,A,0.1,D,PTCH,A,-2.0,D,ROLL*73
$HCHDT,3.6,T*2C
$YXXDR,C,,C,WCHR,C,,C,WCHT,C,,C,HINX,P,0.9704,B,STNP*41
$WIMWV,359.6,R,0.0,N,A*2A
$GPZDA,221255.60,19,11,2014,00,00*6C
$HCHDT,4.4,T*29
$GPVTG,166.8,T,168.2,M,0.0,N,0.0,K,D*22
$WIMWV,356.1,T,0.0,N,A*24
$GPGGA,221255.80,4328.5718,N,09057.1077,W,2,9,1.2,344.3,M,-32.4,M,,*68
$WIMDA,29.8548,I,1.0110,B,26.1,C,,,16.2,,-1.5,C,0.0,T,1.4,M,0.0,N,0.0,M*7E
$YXXDR,A,0.0,D,PTCH,A,-1.8,D,ROLL*79
$HCHDT,3.4,T*2E
$YXXDR,C,,C,WCHR,C,,C,WCHT,C,,C,HINX,P,0.9704,B,STNP*41
$WIMWV,359.6,R,0.0,N,A*2A
$GPZDA,221256.60,19,11,2014,00,00*6F
$HCHDT,3.6,T*2C
$GPVTG,177.9,T,179.3,M,0.0,N,0.0,K,D*22
$WIMWV,356.7,T,0.0,N,A*22
$GPGGA,221256.80,4328.5718,N,09057.1078,W,2,9,1.2,344.3,M,-32.4,M,,*64
$WIMDA,29.8548,I,1.0110,B,26.1,C,,,16.3,,-1.4,C,0.0,T,1.4,M,0.0,N,0.0,M*7E
$YXXDR,A,0.0,D,PTCH,A,-1.8,D,ROLL*79
$HCHDT,4.5,T*28
$YXXDR,C,,C,WCHR,C,,C,WCHT,C,,C,HINX,P,0.9704,B,STNP*41
$WIMWV,91.1,R,0.3,N,A*19
$GPZDA,221257.60,19,11,2014,00,00*6E
$HCHDT,4.5,T*28
$GPVTG,179.2,T,180.6,M,0.0,N,0.0,K,D*24
$WIMWV,91.0,T,0.3,N,A*1E
$GPGGA,221257.80,4328.5718,N,09057.1078,W,2,9,1.2,344.3,M,-32.4,M,,*65
$WIMDA,29.8548,I,1.0110,B,26.1,C,,,16.3,,-1.4,C,95.4,T,96.8,M,0.1,N,0.1,M*74
$YXXDR,A,0.1,D,PTCH,A,-1.7,D,ROLL*77
$HCHDT,3.5,T*2F
$YXXDR,C,,C,WCHR,C,,C,WCHT,C,,C,HINX,P,0.9705,B,STNP*40
$WIMWV,91.1,R,0.2,N,A*18
$GPZDA,221258.60,19,11,2014,00,00*61
$HCHDT,3.2,T*28
$GPVTG,191.2,T,192.6,M,0.0,N,0.0,K,D*21
$WIMWV,91.1,T,0.3,N,A*1F
$GPGGA,221258.80,4328.5718,N,09057.1078,W,2,9,1.2,344.3,M,-32.4,M,,*6A
$WIMDA,29.8578,I,1.0111,B,26.1,C,,,16.3,,-1.4,C,94.8,T,96.2,M,0.1,N,0.1,M*71
$YXXDR,A,0.1,D,PTCH,A,-1.7,D,ROLL*77
$HCHDT,3.8,T*22
$YXXDR,C,,C,WCHR,C,,C,WCHT,C,,C,HINX,P,0.9704,B,STNP*41
$WIMWV,359.6,R,0.0,N,A*2A
$GPZDA,221259.60,19,11,2014,00,00*60
$HCHDT,4.3,T*2E
$GPVTG,342.9,T,344.3,M,0.0,N,0.0,K,D*2A
$WIMWV,356.6,T,0.0,N,A*23
$GPGGA,221259.80,4328.5717,N,09057.1078,W,2,9,1.2,344.2,M,-32.4,M,,*65
$WIMDA,29.8548,I,1.0110,B,26.1,C,,,16.3,,-1.4,C,0.0,T,1.4,M,0.0,N,0.0,M*7E
$YXXDR,A,0.1,D,PTCH,A,-1.8,D,ROLL*78
$HCHDT,3.8,T*22
$YXXDR,C,,C,WCHR,C,,C,WCHT,C,,C,HINX,P,0.9705,B,STNP*40
$WIMWV,359.6,R,0.0,N,A*2A
$GPZDA,221300.60,19,11,2014,00,00*6D
$HCHDT,3.2,T*28
$GPVTG,146.7,T,148.1,M,0.0,N,0.0,K,D*2E
$WIMWV,355.9,T,0.0,N,A*2F
$GPGGA,221300.80,4328.5717,N,09057.1078,W,2,9,1.2,344.2,M,-32.4,M,,*68
$WIMDA,29.8578,I,1.0111,B,26.1,C,,,16.2,,-1.5,C,94.5,T,95.9,M,0.1,N,0.1,M*74
$YXXDR,A,0.1,D,PTCH,A,-1.7,D,ROLL*77
$HCHDT,4.3,T*2E
$YXXDR,C,,C,WCHR,C,,C,WCHT,C,,C,HINX,P,0.9704,B,STNP*41
$WIMWV,91.1,R,0.2,N,A*18
$GPZDA,221301.60,19,11,2014,00,00*6C
$HCHDT,4.3,T*2E
$GPVTG,159.1,T,160.5,M,0.0,N,0.0,K,D*28
$WIMWV,91.0,T,0.3,N,A*1E
$GPGGA,221301.80,4328.5717,N,09057.1078,W,2,9,1.2,344.2,M,-32.4,M,,*69
$WIMDA,29.8548,I,1.0110,B,26.1,C,,,16.2,,-1.5,C,94.6,T,96.0,M,0.2,N,0.1,M*7C
$YXXDR,A,0.1,D,PTCH,A,-1.7,D,ROLL*77
$HCHDT,3.5,T*2F
$YXXDR,C,,C,WCHR,C,,C,WCHT,C,,C,HINX,P,0.9704,B,STNP*41
$WIMWV,91.1,R,0.3,N,A*19
$GPZDA,221302.60,19,11,2014,00,00*6F
$HCHDT,3.7,T*2D
$GPVTG,179.5,T,180.9,M,0.0,N,0.0,K,D*2C
$WIMWV,91.0,T,0.1,N,A*1C
$GPGGA,221302.80,4328.5717,N,09057.1078,W,2,9,1.2,344.2,M,-32.4,M,,*6A
$WIMDA,29.8548,I,1.0110,B,26.1,C,,,16.2,,-1.5,C,94.4,T,95.8,M,0.2,N,0.1,M*75
$YXXDR,A,0.2,D,PTCH,A,-1.9,D,ROLL*7A
$HCHDT,3.7,T*2D
$YXXDR,C,,C,WCHR,C,,C,WCHT,C,,C,HINX,P,0.9705,B,STNP*40
$WIMWV,91.1,R,0.2,N,A*18
$GPZDA,221303.60,19,11,2014,00,00*6E
$HCHDT,3.7,T*2D
$GPVTG,155.5,T,156.9,M,0.0,N,0.0,K,D*29
$WIMWV,91.0,T,0.2,N,A*1F
$GPGGA,221303.80,4328.5717,N,09057.1078,W,2,9,1.2,344.2,M,-32.4,M,,*6B
$WIMDA,29.8578,I,1.0111,B,26.1,C,,,16.2,,-1.5,C,94.8,T,96.2,M,0.1,N,0.1,M*71
$YXXDR,A,0.2,D,PTCH,A,-1.9,D,ROLL*7A
$HCHDT,3.9,T*23
$YXXDR,C,,C,WCHR,C,,C,WCHT,C,,C,HINX,P,0.9703,B,STNP*46
$WIMWV,91.1,R,0.2,N,A*18
$GPZDA,221304.60,19,11,2014,00,00*69
$HCHDT,3.8,T*22
$GPVTG,153.2,T,154.6,M,0.0,N,0.0,K,D*25
$WIMWV,91.0,T,0.1,N,A*1C
$GPGGA,221304.80,4328.5717,N,09057.1078,W,2,9,1.2,344.2,M,-32.4,M,,*6C
$WIMDA,29.8489,I,1.0108,B,26.1,C,,,16.2,,-1.5,C,95.1,T,96.5,M,0.2,N,0.1,M*7A
$YXXDR,A,0.2,D,PTCH,A,-1.9,D,ROLL*7A
$HCHDT,4.5,T*28
$YXXDR,C,,C,WCHR,C,,C,WCHT,C,,C,HINX,P,0.9705,B,STNP*40
$WIMWV,91.1,R,0.3,N,A*19
$GPZDA,221305.60,19,11,2014,00,00*68
$HCHDT,3.5,T*2F
$GPVTG,73.9,T,75.3,M,0.0,N,0.0,K,D*2A
$WIMWV,91.0,T,0.3,N,A*1E
$GPGGA,221305.80,4328.5717,N,09057.1078,W,2,9,1.2,344.2,M,-32.4,M,,*6D
$WIMDA,29.8578,I,1.0111,B,26.1,C,,,16.2,,-1.5,C,94.5,T,95.9,M,0.3,N,0.2,M*75
$YXXDR,A,0.2,D,PTCH,A,-1.9,D,ROLL*7A
$HCHDT,3.6,T*2C
$YXXDR,C,,C,WCHR,C,,C,WCHT,C,,C,HINX,P,0.9705,B,STNP*40
$WIMWV,91.1,R,0.2,N,A*18
$GPZDA,221306.60,19,11,2014,00,00*6B
$HCHDT,4.3,T*2E
$GPVTG,53.3,T,54.7,M,0.0,N,0.0,K,D*25
$WIMWV,356.9,T,0.0,N,A*2C
$GPGGA,221306.80,4328.5717,N,09057.1078,W,2,9,1.2,344.2,M,-32.4,M,,*6E
$WIMDA,29.8578,I,1.0111,B,26.1,C,,,16.2,,-1.5,C,94.4,T,95.8,M,0.2,N,0.1,M*77
$YXXDR,A,0.2,D,PTCH,A,-1.9,D,ROLL*7A
$HCHDT,3.8,T*22
$YXXDR,C,,C,WCHR,C,,C,WCHT,C,,C,HINX,P,0.9705,B,STNP*40
$WIMWV,91.1,R,0.2,N,A*18
$GPZDA,221307.60,19,11,2014,00,00*6A
$HCHDT,4.3,T*2E
$GPVTG,89.8,T,91.2,M,0.0,N,0.0,K,D*25
$WIMWV,356.4,T,0.0,N,A*21
$GPGGA,221307.80,4328.5716,N,09057.1078,W,2,9,1.2,344.2,M,-32.4,M,,*6E
$WIMDA,29.8578,I,1.0111,B,26.1,C,,,16.2,,-1.5,C,0.0,T,1.4,M,0.0,N,0.0,M*7C
$YXXDR,A,0.2,D,PTCH,A,-1.9,D,ROLL*7A
$HCHDT,3.4,T*2E
$YXXDR,C,,C,WCHR,C,,C,WCHT,C,,C,HINX,P,0.9705,B,STNP*40
$WIMWV,91.1,R,0.2,N,A*18
$GPZDA,221308.60,19,11,2014,00,00*65
$HCHDT,3.9,T*23
$GPVTG,355.0,T,356.4,M,0.1,N,0.1,K,D*21
$WIMWV,113.2,T,0.2,N,A*26
$GPGGA,221308.80,4328.5716,N,09057.1078,W,2,9,1.2,344.2,M,-32.4,M,,*61
$WIMDA,29.8578,I,1.0111,B,26.1,C,,,16.2,,-1.5,C,115.3,T,116.7,M,0.2,N,0.1,M*7D
$YXXDR,A,0.2,D,PTCH,A,-1.9,D,ROLL*7A
$HCHDT,3.8,T*22
$YXXDR,C,,C,WCHR,C,,C,WCHT,C,,C,HINX,P,0.9704,B,STNP*41
$WIMWV,91.1,R,0.2,N,A*18
$GPZDA,221309.60,19,11,2014,00,00*64
$HCHDT,4.2,T*2F
$GPVTG,351.6,T,353.0,M,0.1,N,0.1,K,D*22
$WIMWV,111.9,T,0.2,N,A*2F
$GPGGA,221309.80,4328.5716,N,09057.1078,W,2,9,1.2,344.2,M,-32.4,M,,*60
$WIMDA,29.8548,I,1.0110,B,26.1,C,,,16.2,,-1.5,C,159.2,T,160.6,M,0.1,N,0.1,M*75
$YXXDR,A,0.2,D,PTCH,A,-1.9,D,ROLL*7A
$HCHDT,3.5,T*2F
$YXXDR,C,,C,WCHR,C,,C,WCHT,C,,C,HINX,P,0.9705,B,STNP*40
$WIMWV,91.1,R,0.2,N,A*18
$GPZDA,221310.60,19,11,2014,00,00*6C
$HCHDT,3.6,T*2C
$GPVTG,349.4,T,350.8,M,0.1,N,0.1,K,D*22
$WIMWV,164.3,T,0.1,N,A*24
$GPGGA,221310.80,4328.5716,N,09057.1078,W,2,9,1.2,344.2,M,-32.4,M,,*68
$WIMDA,29.8578,I,1.0111,B,26.1,C,,,16.2,,-1.5,C,115.6,T,117.0,M,0.2,N,0.1,M*7E
$YXXDR,A,0.2,D,PTCH,A,-1.9,D,ROLL*7A
$HCHDT,3.2,T*28
$YXXDR,C,,C,WCHR,C,,C,WCHT,C,,C,HINX,P,0.9705,B,STNP*40
$WIMWV,359.6,R,0.0,N,A*2A
$GPZDA,221311.60,19,11,2014,00,00*6D
$HCHDT,3.3,T*29
$GPVTG,348.1,T,349.5,M,0.1,N,0.1,K,D*23
$WIMWV,162.8,T,0.0,N,A*28
$GPGGA,221311.80,4328.5716,N,09057.1078,W,2,9,1.2,344.2,M,-32.4,M,,*69
$WIMDA,29.8578,I,1.0111,B,26.1,C,,,16.2,,-1.5,C,115.3,T,116.7,M,0.2,N,0.1,M*7D
$YXXDR,A,0.1,D,PTCH,A,-1.8,D,ROLL*78
$HCHDT,3.4,T*2E
$YXXDR,C,,C,WCHR,C,,C,WCHT,C,,C,HINX,P,0.9705,B,STNP*40
$WIMWV,91.1,R,0.2,N,A*18
$GPZDA,221312.60,19,11,2014,00,00*6E
$HCHDT,3.8,T*22
$GPVTG,350.8,T,352.2,M,0.1,N,0.1,K,D*2E
$WIMWV,128.4,T,0.1,N,A*2B
$GPGGA,221312.80,4328.5716,N,09057.1078,W,2,9,1.2,344.2,M,-32.4,M,,*6A
$WIMDA,29.8578,I,1.0111,B,26.1,C,,,16.2,,-1.5,C,129.6,T,131.0,M,0.1,N,0.1,M*76
$YXXDR,A,0.1,D,PTCH,A,-1.8,D,ROLL*78
$HCHDT,3.5,T*2F
$YXXDR,C,,C,WCHR,C,,C,WCHT,C,,C,HINX,P,0.9705,B,STNP*40
$WIMWV,359.6,R,0.0,N,A*2A
$GPZDA,221313.60,19,11,2014,00,00*6F
$HCHDT,4.3,T*2E
$GPVTG,356.9,T,358.3,M,0.1,N,0.1,K,D*22
$WIMWV,167.6,T,0.1,N,A*22
$GPGGA,221313.80,4328.5716,N,09057.1078,W,2,9,1.2,344.2,M,-32.4,M,,*6B
$WIMDA,29.8578,I,1.0111,B,26.1,C,,,16.2,,-1.5,C,163.8,T,165.2,M,0.1,N,0.1,M*75
$YXXDR,A,0.1,D,PTCH,A,-1.7,D,ROLL*77
$HCHDT,3.3,T*29
$YXXDR,C,,C,WCHR,C,,C,WCHT,C,,C,HINX,P,0.9704,B,STNP*41
$WIMWV,359.6,R,0.0,N,A*2A
$GPZDA,221314.60,19,11,2014,00,00*68
$HCHDT,3.7,T*2D
$GPVTG,355.7,T,357.1,M,0.0,N,0.0,K,D*22
$WIMWV,114.2,T,0.2,N,A*21
$GPGGA,221314.80,4328.5716,N,09057.1078,W,2,9,1.2,344.2,M,-32.4,M,,*6C
$WIMDA,29.8548,I,1.0110,B,26.1,C,,,16.2,,-1.5,C,161.6,T,163.0,M,0.1,N,0.1,M*7F
$YXXDR,A,0.1,D,PTCH,A,-1.7,D,ROLL*77
$HCHDT,3.5,T*2F
$YXXDR,C,,C,WCHR,C,,C,WCHT,C,,C,HINX,P,0.9705,B,STNP*40
$WIMWV,359.6,R,0.0,N,A*2A
$GPZDA,221315.60,19,11,2014,00,00*69
$HCHDT,4.2,T*2F
$GPVTG,24.6,T,26.0,M,0.0,N,0.0,K,D*22
$WIMWV,91.0,T,0.1,N,A*1C
$GPGGA,221315.80,4328.5716,N,09057.1078,W,2,9,1.2,344.2,M,-32.4,M,,*6D
$WIMDA,29.8578,I,1.0111,B,26.1,C,,,16.2,,-1.5,C,94.8,T,96.2,M,0.1,N,0.1,M*71
$YXXDR,A,0.2,D,PTCH,A,-1.9,D,ROLL*7A
$HCHDT,3.7,T*2D
$YXXDR,C,,C,WCHR,C,,C,WCHT,C,,C,HINX,P,0.9705,B,STNP*40
$WIMWV,91.1,R,0.2,N,A*18
$GPZDA,221316.60,19,11,2014,00,00*6A
$HCHDT,4.3,T*2E
$GPVTG,168.1,T,169.5,M,0.1,N,0.1,K,D*23
$WIMWV,40.9,T,0.1,N,A*19
$GPGGA,221316.80,4328.5716,N,09057.1078,W,2,9,1.2,344.2,M,-32.4,M,,*6E
$WIMDA,29.8578,I,1.0111,B,26.1,C,,,16.2,,-1.5,C,66.3,T,67.7,M,0.2,N,0.1,M*7F
$YXXDR,A,0.0,D,PTCH,A,-1.8,D,ROLL*79
$HCHDT,3.4,T*2E
$YXXDR,C,,C,WCHR,C,,C,WCHT,C,,C,HINX,P,0.9705,B,STNP*40
$WIMWV,91.1,R,0.2,N,A*18
$GPZDA,221317.60,19,11,2014,00,00*6B
$HCHDT,3.5,T*2F
$GPVTG,172.8,T,174.2,M,0.1,N,0.1,K,D*2A
$WIMWV,62.6,T,0.2,N,A*15
$GPGGA,221317.80,4328.5716,N,09057.1078,W,2,9,1.2,344.2,M,-32.4,M,,*6F
$WIMDA,29.8578,I,1.0111,B,26.1,C,,,16.2,,-1.5,C,75.3,T,76.7,M,0.3,N,0.2,M*7F
$YXXDR,A,0.0,D,PTCH,A,-1.8,D,ROLL*79
$HCHDT,3.7,T*2D
$YXXDR,C,,C,WCHR,C,,C,WCHT,C,,C,HINX,P,0.9705,B,STNP*40
$WIMWV,91.1,R,0.2,N,A*18
$GPZDA,221318.60,19,11,2014,00,00*64
$HCHDT,3.9,T*23
$GPVTG,174.8,T,176.2,M,0.1,N,0.1,K,D*2E
$WIMWV,72.1,T,0.3,N,A*12
$GPGGA,221318.80,4328.5716,N,09057.1078,W,2,9,1.2,344.2,M,-32.4,M,,*60
$WIMDA,29.8578,I,1.0111,B,26.1,C,,,16.2,,-1.5,C,95.1,T,96.5,M,0.1,N,0.1,M*7E
$YXXDR,A,0.1,D,PTCH,A,-1.7,D,ROLL*77
$HCHDT,3.5,T*2F
$YXXDR,C,,C,WCHR,C,,C,WCHT,C,,C,HINX,P,0.9705,B,STNP*40
$WIMWV,91.1,R,0.2,N,A*18
$GPZDA,221319.60,19,11,2014,00,00*65
$HCHDT,3.7,T*2D
$GPVTG,173.3,T,174.7,M,0.1,N,0.1,K,D*25
$WIMWV,91.0,T,0.2,N,A*1F
$GPGGA,221319.80,4328.5716,N,09057.1078,W,2,9,1.2,344.2,M,-32.4,M,,*61
$WIMDA,29.8548,I,1.0110,B,26.1,C,,,16.2,,-1.5,C,94.2,T,95.6,M,0.1,N,0.1,M*7E
$YXXDR,A,0.0,D,PTCH,A,-1.8,D,ROLL*79
$HCHDT,2.8,T*23
$YXXDR,C,,C,WCHR,C,,C,WCHT,C,,C,HINX,P,0.9704,B,STNP*41
$WIMWV,91.1,R,0.2,N,A*18
$GPZDA,221320.60,19,11,2014,00,00*6F
$HCHDT,3.8,T*22
$GPVTG,178.6,T,180.0,M,0.0,N,0.0,K,D*27
$WIMWV,91.0,T,0.1,N,A*1C
$GPGGA,221320.80,4328.5716,N,09057.1078,W,2,9,1.2,344.1,M,-32.4,M,,*68
$WIMDA,29.8519,I,1.0109,B,26.1,C,,,16.3,,-1.4,C,94.6,T,96.0,M,0.2,N,0.1,M*70
$YXXDR,A,0.0,D,PTCH,A,-1.8,D,ROLL*79
$HCHDT,3.8,T*22
$YXXDR,C,,C,WCHR,C,,C,WCHT,C,,C,HINX,P,0.9705,B,STNP*40
$WIMWV,91.1,R,0.2,N,A*18
$GPZDA,221321.60,19,11,2014,00,00*6E
$HCHDT,4.2,T*2F
$GPVTG,168.7,T,170.1,M,0.1,N,0.1,K,D*29
$WIMWV,348.9,T,0.0,N,A*23
$GPGGA,221321.80,4328.5716,N,09057.1077,W,2,9,1.2,344.1,M,-32.4,M,,*66
$WIMDA,29.8548,I,1.0110,B,26.1,C,,,16.2,,-1.5,C,3.1,T,4.5,M,0.0,N,0.0,M*78
$YXXDR,A,0.1,D,PTCH,A,-1.7,D,ROLL*77
$HCHDT,3.7,T*2D
$YXXDR,C,,C,WCHR,C,,C,WCHT,C,,C,HINX,P,0.9705,B,STNP*40
$WIMWV,359.6,R,0.0,N,A*2A
$GPZDA,221322.60,19,11,2014,00,00*6D
$HCHDT,4.2,T*2F
$GPVTG,172.3,T,173.7,M,0.1,N,0.1,K,D*23
$WIMWV,356.9,T,0.1,N,A*2D
$GPGGA,221322.80,4328.5716,N,09057.1078,W,2,9,1.2,344.1,M,-32.4,M,,*6A
$WIMDA,29.8548,I,1.0110,B,26.1,C,,,16.2,,-1.5,C,7.3,T,8.7,M,0.1,N,0.1,M*70
$YXXDR,A,0.1,D,PTCH,A,-1.7,D,ROLL*77
$HCHDT,4.3,T*2E
$YXXDR,C,,C,WCHR,C,,C,WCHT,C,,C,HINX,P,0.9705,B,STNP*40
$WIMWV,359.6,R,0.0,N,A*2A
$GPZDA,221323.60,19,11,2014,00,00*6C
$HCHDT,3.5,T*2F
$GPVTG,171.9,T,173.3,M,0.1,N,0.1,K,D*2E
$WIMWV,351.7,T,0.0,N,A*25
$GPGGA,221323.80,4328.5716,N,09057.1077,W,2,9,1.2,344.1,M,-32.4,M,,*64
$WIMDA,29.8548,I,1.0110,B,26.1,C,,,16.2,,-1.5,C,183.4,T,184.8,M,0.1,N,0.1,M*70
$YXXDR,A,0.1,D,PTCH,A,-1.7,D,ROLL*77
$HCHDT,3.5,T*2F
$YXXDR,C,,C,WCHR,C,,C,WCHT,C,,C,HINX,P,0.9704,B,STNP*41
$WIMWV,359.6,R,0.0,N,A*2A
$GPZDA,221324.60,19,11,2014,00,00*6B
$HCHDT,4.5,T*28
$GPVTG,175.8,T,177.2,M,0.1,N,0.1,K,D*2E
$WIMWV,180.1,T,0.1,N,A*2C
$GPGGA,221324.80,4328.5716,N,09057.1077,W,2,9,1.2,344.1,M,-32.4,M,,*63
$WIMDA,29.8519,I,1.0109,B,26.1,C,,,16.2,,-1.5,C,8.2,T,9.6,M,0.1,N,0.1,M*72
$YXXDR,A,0.1,D,PTCH,A,-1.7,D,ROLL*77
$HCHDT,3.2,T*28
$YXXDR,C,,C,WCHR,C,,C,WCHT,C,,C,HINX,P,0.9705,B,STNP*40
$WIMWV,359.6,R,0.0,N,A*2A
$GPZDA,221325.60,19,11,2014,00,00*6A
$HCHDT,3.5,T*2F
$GPVTG,179.2,T,180.6,M,0.0,N,0.0,K,D*24
$WIMWV,180.6,T,0.2,N,A*28
$GPGGA,221325.80,4328.5716,N,09057.1077,W,2,9,1.2,344.1,M,-32.4,M,,*62
$WIMDA,29.8548,I,1.0110,B,26.1,C,,,16.1,,-1.6,C,0.0,T,1.4,M,0.0,N,0.0,M*7E
$YXXDR,A,0.1,D,PTCH,A,-1.8,D,ROLL*78
$HCHDT,3.5,T*2F
$YXXDR,C,,C,WCHR,C,,C,WCHT,C,,C,HINX,P,0.9705,B,STNP*40
$WIMWV,359.6,R,0.0,N,A*2A
$GPZDA,221326.60,19,11,2014,00,00*69
$HCHDT,3.3,T*29
$GPVTG,171.4,T,172.8,M,0.0,N,0.0,K,D*29
$WIMWV,356.5,T,0.0,N,A*20
$GPGGA,221326.80,4328.5716,N,09057.1077,W,2,9,1.2,344.1,M,-32.4,M,,*61
$WIMDA,29.8548,I,1.0110,B,26.1,C,,,16.2,,-1.5,C,0.0,T,1.4,M,0.0,N,0.0,M*7E
$YXXDR,A,0.1,D,PTCH,A,-1.8,D,ROLL*78
$HCHDT,3.4,T*2E
$YXXDR,C,,C,WCHR,C,,C,WCHT,C,,C,HINX,P,0.9704,B,STNP*41
$WIMWV,359.6,R,0.0,N,A*2A
$GPZDA,221327.60,19,11,2014,00,00*68
$HCHDT,3.5,T*2F
$GPVTG,350.0,T,351.4,M,0.0,N,0.0,K,D*23
$WIMWV,113.9,T,0.2,N,A*2D
$GPGGA,221327.80,4328.5715,N,09057.1077,W,2,9,1.2,344.1,M,-32.4,M,,*63
$WIMDA,29.8519,I,1.0109,B,26.1,C,,,16.1,,-1.6,C,110.4,T,111.8,M,0.3,N,0.2,M*7B
$YXXDR,A,0.1,D,PTCH,A,-1.8,D,ROLL*78
$HCHDT,3.3,T*29
$YXXDR,C,,C,WCHR,C,,C,WCHT,C,,C,HINX,P,0.9705,B,STNP*40
$WIMWV,180.5,R,0.2,N,A*2D
$GPZDA,221328.60,19,11,2014,00,00*67
$HCHDT,3.7,T*2D
$GPVTG,358.4,T,359.8,M,0.1,N,0.1,K,D*2B
$WIMWV,170.2,T,0.1,N,A*20
$GPGGA,221328.80,4328.5715,N,09057.1077,W,2,9,1.2,344.1,M,-32.4,M,,*6C
$WIMDA,29.8548,I,1.0110,B,26.1,C,,,16.2,,-1.5,C,133.6,T,135.0,M,0.3,N,0.2,M*7A
$YXXDR,A,0.1,D,PTCH,A,-1.8,D,ROLL*78
$HCHDT,3.7,T*2D
$YXXDR,C,,C,WCHR,C,,C,WCHT,C,,C,HINX,P,0.9705,B,STNP*40
$WIMWV,91.1,R,0.2,N,A*18
$GPZDA,221329.60,19,11,2014,00,00*66
$HCHDT,4.1,T*2C
$GPVTG,358.0,T,359.4,M,0.2,N,0.3,K,D*22
$WIMWV,131.9,T,0.3,N,A*2C
$GPGGA,221329.80,4328.5715,N,09057.1078,W,2,9,1.2,344.1,M,-32.4,M,,*62
$WIMDA,29.8548,I,1.0110,B,26.1,C,,,16.2,,-1.5,C,134.7,T,136.1,M,0.3,N,0.2,M*7E
$YXXDR,A,0.1,D,PTCH,A,-1.8,D,ROLL*78
$HCHDT,4.0,T*2D
$YXXDR,C,,C,WCHR,C,,C,WCHT,C,,C,HINX,P,0.9705,B,STNP*40
$WIMWV,91.1,R,0.2,N,A*18
$GPZDA,221330.60,19,11,2014,00,00*6E
$HCHDT,3.7,T*2D
$GPVTG,355.1,T,356.5,M,0.2,N,0.3,K,D*20
$WIMWV,131.4,T,0.3,N,A*21
$GPGGA,221330.80,4328.5715,N,09057.1078,W,2,9,1.2,344.1,M,-32.4,M,,*6A
$WIMDA,29.8548,I,1.0110,B,26.1,C,,,16.2,,-1.5,C,133.6,T,135.0,M,0.3,N,0.2,M*7A
$YXXDR,A,0.1,D,PTCH,A,-1.8,D,ROLL*78
$HCHDT,3.5,T*2F
$YXXDR,C,,C,WCHR,C,,C,WCHT,C,,C,HINX,P,0.9705,B,STNP*40
$WIMWV,91.1,R,0.2,N,A*18
$GPZDA,221331.60,19,11,2014,00,00*6F
$HCHDT,3.3,T*29
$GPVTG,358.6,T,0.0,M,0.1,N,0.1,K,D*2E
$WIMWV,108.5,T,0.3,N,A*2A
$GPGGA,221331.80,4328.5715,N,09057.1077,W,2,9,1.2,344.1,M,-32.4,M,,*64
$WIMDA,29.8548,I,1.0110,B,26.1,C,,,16.2,,-1.5,C,134.0,T,135.4,M,0.1,N,0.1,M*7E
$YXXDR,A,0.1,D,PTCH,A,-1.8,D,ROLL*78
$HCHDT,4.1,T*2C
$YXXDR,C,,C,WCHR,C,,C,WCHT,C,,C,HINX,P,0.9705,B,STNP*40
$WIMWV,91.1,R,0.3,N,A*19
$GPZDA,221332.60,19,11,2014,00,00*6C
$HCHDT,4.0,T*2D
$GPVTG,2.3,T,3.7,M,0.1,N,0.1,K,D*23
$WIMWV,116.2,T,0.2,N,A*23
$GPGGA,221332.80,4328.5715,N,09057.1078,W,2,9,1.2,344.1,M,-32.4,M,,*68
$WIMDA,29.8548,I,1.0110,B,26.1,C,,,16.2,,-1.5,C,112.3,T,113.7,M,0.3,N,0.2,M*7F
$YXXDR,A,0.2,D,PTCH,A,-1.9,D,ROLL*7A
$HCHDT,4.1,T*2C
$YXXDR,C,,C,WCHR,C,,C,WCHT,C,,C,HINX,P,0.9705,B,STNP*40
$WIMWV,91.1,R,0.2,N,A*18
$GPZDA,221333.60,19,11,2014,00,00*6D
$HCHDT,3.5,T*2F
$GPVTG,2.4,T,3.8,M,0.1,N,0.1,K,D*2B
$WIMWV,116.8,T,0.2,N,A*29
$GPGGA,221333.80,4328.5715,N,09057.1077,W,2,9,1.2,344.1,M,-32.4,M,,*66
$WIMDA,29.8548,I,1.0110,B,26.1,C,,,16.2,,-1.5,C,119.0,T,120.4,M,0.2,N,0.1,M*76
$YXXDR,A,0.1,D,PTCH,A,-1.8,D,ROLL*78
$HCHDT,3.4,T*2E
$YXXDR,C,,C,WCHR,C,,C,WCHT,C,,C,HINX,P,0.9704,B,STNP*41
$WIMWV,359.6,R,0.0,N,A*2A
$GPZDA,221334.60,19,11,2014,00,00*6A
$HCHDT,3.6,T*2C
$GPVTG,3.0,T,4.4,M,0.1,N,0.1,K,D*25
$WIMWV,174.4,T,0.1,N,A*22
$GPGGA,221334.80,4328.5715,N,09057.1077,W,2,9,1.2,344.1,M,-32.4,M,,*61
$WIMDA,29.8519,I,1.0109,B,26.1,C,,,16.2,,-1.5,C,173.0,T,174.4,M,0.0,N,0.0,M*74
$YXXDR,A,0.2,D,PTCH,A,-1.9,D,ROLL*7A
$HCHDT,3.5,T*2F
$YXXDR,C,,C,WCHR,C,,C,WCHT,C,,C,HINX,P,0.9705,B,STNP*40
$WIMWV,91.1,R,0.1,N,A*1B
$GPZDA,221335.60,19,11,2014,00,00*6B
$HCHDT,3.6,T*2C
$GPVTG,0.6,T,2.0,M,0.1,N,0.1,K,D*22
$WIMWV,116.1,T,0.2,N,A*20
$GPGGA,221335.80,4328.5715,N,09057.1077,W,2,9,1.2,344.1,M,-32.4,M,,*60
$WIMDA,29.8548,I,1.0110,B,26.1,C,,,16.2,,-1.5,C,119.4,T,120.8,M,0.2,N,0.1,M*7E
$YXXDR,A,0.1,D,PTCH,A,-1.8,D,ROLL*78
$HCHDT,3.7,T*2D
$YXXDR,C,,C,WCHR,C,,C,WCHT,C,,C,HINX,P,0.9705,B,STNP*40
$WIMWV,91.1,R,0.2,N,A*18
$GPZDA,221336.60,19,11,2014,00,00*68
$HCHDT,3.9,T*23
$GPVTG,2.8,T,4.2,M,0.1,N,0.1,K,D*2A
$WIMWV,116.8,T,0.2,N,A*29
$GPGGA,221336.80,4328.5715,N,09057.1077,W,2,9,1.2,344.1,M,-32.4,M,,*63
$WIMDA,29.8548,I,1.0110,B,26.1,C,,,16.3,,-1.4,C,117.2,T,118.6,M,0.2,N,0.1,M*73
$YXXDR,A,0.2,D,PTCH,A,-1.9,D,ROLL*7A
$HCHDT,3.3,T*29
$YXXDR,C,,C,WCHR,C,,C,WCHT,C,,C,HINX,P,0.9706,B,STNP*43
$WIMWV,359.6,R,0.0,N,A*2A
$GPZDA,221337.60,19,11,2014,00,00*69
$HCHDT,4.0,T*2D
$GPVTG,3.5,T,4.9,M,0.1,N,0.1,K,D*2D
$WIMWV,115.9,T,0.2,N,A*2B
$GPGGA,221337.80,4328.5715,N,09057.1077,W,2,9,1.2,344.1,M,-32.4,M,,*62
$WIMDA,29.8607,I,1.0112,B,26.1,C,,,16.3,,-1.4,C,176.0,T,177.4,M,0.1,N,0.1,M*74
$YXXDR,A,0.2,D,PTCH,A,-1.9,D,ROLL*7A
$HCHDT,3.0,T*2A
$YXXDR,C,,C,WCHR,C,,C,WCHT,C,,C,HINX,P,0.9705,B,STNP*40
$WIMWV,91.1,R,0.2,N,A*18
$GPZDA,221338.60,19,11,2014,00,00*66
$HCHDT,3.4,T*2E
$GPVTG,4.6,T,6.0,M,0.1,N,0.1,K,D*22
$WIMWV,117.0,T,0.2,N,A*20
$GPGGA,221338.80,4328.5715,N,09057.1077,W,2,9,1.2,344.1,M,-32.4,M,,*6D
$WIMDA,29.8548,I,1.0110,B,26.1,C,,,16.3,,-1.4,C,174.0,T,175.4,M,0.1,N,0.1,M*7E
$YXXDR,A,0.0,D,PTCH,A,-1.8,D,ROLL*79
$HCHDT,4.7,T*2A
$YXXDR,C,,C,WCHR,C,,C,WCHT,C,,C,HINX,P,0.9705,B,STNP*40
$WIMWV,359.6,R,0.0,N,A*2A
$GPZDA,221339.60,19,11,2014,00,00*67
$HCHDT,4.5,T*28
$GPVTG,21.7,T,23.1,M,0.0,N,0.0,K,D*22
$WIMWV,357.0,T,0.0,N,A*24
$GPGGA,221339.80,4328.5715,N,09057.1077,W,2,9,1.2,344.1,M,-32.4,M,,*6C
$WIMDA,29.8548,I,1.0110,B,26.1,C,,,16.3,,-1.4,C,0.0,T,1.4,M,0.0,N,0.0,M*7E
$YXXDR,A,0.1,D,PTCH,A,-1.8,D,ROLL*78
$HCHDT,3.4,T*2E
$YXXDR,C,,C,WCHR,C,,C,WCHT,C,,C,HINX,P,0.9705,B,STNP*40
$WIMWV,91.1,R,0.2,N,A*18
$GPZDA,221340.60,19,11,2014,00,00*69
$HCHDT,4.1,T*2C
$GPVTG,39.8,T,41.2,M,0.0,N,0.0,K,D*23
$WIMWV,91.0,T,0.2,N,A*1F
$GPGGA,221340.80,4328.5715,N,09057.1077,W,2,9,1.2,344.1,M,-32.4,M,,*62
$WIMDA,29.8548,I,1.0110,B,26.1,C,,,16.3,,-1.4,C,0.0,T,1.4,M,0.0,N,0.0,M*7E
$YXXDR,A,0.1,D,PTCH,A,-1.8,D,ROLL*78
$HCHDT,3.4,T*2E
$YXXDR,C,,C,WCHR,C,,C,WCHT,C,,C,HINX,P,0.9705,B,STNP*40
$WIMWV,359.6,R,0.0,N,A*2A
$GPZDA,221341.60,19,11,2014,00,00*68
$HCHDT,3.4,T*2E
$GPVTG,71.8,T,73.2,M,0.0,N,0.0,K,D*2E
$WIMWV,357.0,T,0.0,N,A*24
$GPGGA,221341.80,4328.5715,N,09057.1077,W,2,9,1.2,344.1,M,-32.4,M,,*63
$WIMDA,29.8548,I,1.0110,B,26.1,C,,,16.3,,-1.4,C,0.0,T,1.4,M,0.0,N,0.0,M*7E
$YXXDR,A,0.2,D,PTCH,A,-1.9,D,ROLL*7A
$HCHDT,3.7,T*2D
$YXXDR,C,,C,WCHR,C,,C,WCHT,C,,C,HINX,P,0.9705,B,STNP*40
$WIMWV,359.6,R,0.0,N,A*2A
$GPZDA,221342.60,19,11,2014,00,00*6B
$HCHDT,4.2,T*2F
$GPVTG,61.4,T,62.8,M,0.0,N,0.0,K,D*29
$WIMWV,356.3,T,0.0,N,A*26
$GPGGA,221342.80,4328.5715,N,09057.1077,W,2,9,1.2,344.1,M,-32.4,M,,*60
$WIMDA,29.8548,I,1.0110,B,26.1,C,,,16.2,,-1.5,C,0.0,T,1.4,M,0.0,N,0.0,M*7E
$YXXDR,A,0.1,D,PTCH,A,-1.8,D,ROLL*78
$HCHDT,3.1,T*2B
$YXXDR,C,,C,WCHR,C,,C,WCHT,C,,C,HINX,P,0.9705,B,STNP*40
$WIMWV,359.6,R,0.0,N,A*2A
$GPZDA,221343.60,19,11,2014,00,00*6A
$HCHDT,3.6,T*2C
$GPVTG,169.9,T,171.3,M,0.0,N,0.0,K,D*25
$WIMWV,356.8,T,0.0,N,A*2D
$GPGGA,221343.80,4328.5715,N,09057.1077,W,2,9,1.2,344.1,M,-32.4,M,,*61
$WIMDA,29.8548,I,1.0110,B,26.1,C,,,16.2,,-1.5,C,0.0,T,1.4,M,0.0,N,0.0,M*7E
$YXXDR,A,0.1,D,PTCH,A,-1.8,D,ROLL*78
$HCHDT,3.2,T*28
$YXXDR,C,,C,WCHR,C,,C,WCHT,C,,C,HINX,P,0.9704,B,STNP*41
$WIMWV,359.6,R,0.0,N,A*2A
$GPZDA,221344.60,19,11,2014,00,00*6D
$HCHDT,3.9,T*23
$GPVTG,169.8,T,171.2,M,0.1,N,0.1,K,D*25
$WIMWV,91.0,T,0.1,N,A*1C
$GPGGA,221344.80,4328.5715,N,09057.1077,W,2,9,1.2,344.1,M,-32.4,M,,*66
$WIMDA,29.8519,I,1.0109,B,26.1,C,,,16.2,,-1.5,C,95.2,T,96.6,M,0.2,N,0.1,M*73
$YXXDR,A,0.1,D,PTCH,A,-1.8,D,ROLL*78
$HCHDT,4.1,T*2C
$YXXDR,C,,C,WCHR,C,,C,WCHT,C,,C,HINX,P,0.9705,B,STNP*40
$WIMWV,359.6,R,0.0,N,A*2A
$GPZDA,221345.60,19,11,2014,00,00*6C
$HCHDT,4.1,T*2C
$GPVTG,173.8,T,175.2,M,0.1,N,0.1,K,D*2A
$WIMWV,358.9,T,0.1,N,A*23
$GPGGA,221345.80,4328.5715,N,09057.1077,W,2,9,1.2,344.1,M,-32.4,M,,*67
$WIMDA,29.8548,I,1.0110,B,26.1,C,,,16.2,,-1.5,C,67.5,T,68.9,M,0.2,N,0.1,M*7B
$YXXDR,A,0.1,D,PTCH,A,-1.8,D,ROLL*78
$HCHDT,3.5,T*2F
$YXXDR,C,,C,WCHR,C,,C,WCHT,C,,C,HINX,P,0.9705,B,STNP*40
$WIMWV,359.6,R,0.0,N,A*2A
$GPZDA,221346.60,19,11,2014,00,00*6F
$HCHDT,4.2,T*2F
$GPVTG,173.1,T,174.5,M,0.1,N,0.1,K,D*25
$WIMWV,63.3,T,0.2,N,A*11
$GPGGA,221346.80,4328.5715,N,09057.1078,W,2,9,1.2,344.2,M,-32.4,M,,*68
$WIMDA,29.8578,I,1.0111,B,26.1,C,,,16.2,,-1.5,C,76.5,T,77.9,M,0.3,N,0.2,M*75
$YXXDR,A,0.1,D,PTCH,A,-1.8,D,ROLL*78
$HCHDT,3.6,T*2C
$YXXDR,C,,C,WCHR,C,,C,WCHT,C,,C,HINX,P,0.9705,B,STNP*40
$WIMWV,91.1,R,0.2,N,A*18
$GPZDA,221347.60,19,11,2014,00,00*6E
$HCHDT,3.8,T*22
$GPVTG,176.4,T,177.8,M,0.1,N,0.1,K,D*2B
$WIMWV,62.9,T,0.2,N,A*1A
$GPGGA,221347.80,4328.5715,N,09057.1078,W,2,9,1.2,344.1,M,-32.4,M,,*6A
$WIMDA,29.8548,I,1.0110,B,26.1,C,,,16.2,,-1.5,C,68.8,T,70.2,M,0.2,N,0.1,M*7B
$YXXDR,A,0.1,D,PTCH,A,-1.8,D,ROLL*78
$HCHDT,3.9,T*23
$YXXDR,C,,C,WCHR,C,,C,WCHT,C,,C,HINX,P,0.9705,B,STNP*40
$WIMWV,91.1,R,0.1,N,A*1B
$GPZDA,221348.60,19,11,2014,00,00*61
$HCHDT,3.4,T*2E
$GPVTG,179.2,T,180.6,M,0.1,N,0.1,K,D*24
$WIMWV,64.1,T,0.2,N,A*14
$GPGGA,221348.80,4328.5715,N,09057.1078,W,2,9,1.2,344.1,M,-32.4,M,,*65
$WIMDA,29.8548,I,1.0110,B,26.1,C,,,16.2,,-1.5,C,94.4,T,95.8,M,0.2,N,0.1,M*75
$YXXDR,A,0.1,D,PTCH,A,-1.8,D,ROLL*78
$HCHDT,3.1,T*2B
$YXXDR,C,,C,WCHR,C,,C,WCHT,C,,C,HINX,P,0.9705,B,STNP*40
$WIMWV,359.6,R,0.0,N,A*2A
$GPZDA,221349.60,19,11,2014,00,00*60
$HCHDT,3.9,T*23
$GPVTG,180.4,T,181.8,M,0.1,N,0.1,K,D*2B
$WIMWV,358.3,T,0.1,N,A*29
$GPGGA,221349.80,4328.5715,N,09057.1078,W,2,9,1.2,344.1,M,-32.4,M,,*64
$WIMDA,29.8548,I,1.0110,B,26.1,C,,,16.2,,-1.5,C,0.0,T,1.4,M,0.0,N,0.0,M*7E
$YXXDR,A,0.1,D,PTCH,A,-1.8,D,ROLL*78
$HCHDT,3.7,T*2D
$YXXDR,C,,C,WCHR,C,,C,WCHT,C,,C,HINX,P,0.9705,B,STNP*40
$WIMWV,359.6,R,0.0,N,A*2A
$GPZDA,221350.60,19,11,2014,00,00*68
$HCHDT,4.2,T*2F
$GPVTG,189.1,T,190.5,M,0.0,N,0.0,K,D*2A
$WIMWV,91.0,T,0.1,N,A*1C
$GPGGA,221350.80,4328.5715,N,09057.1078,W,2,9,1.2,344.1,M,-32.4,M,,*6C
$WIMDA,29.8548,I,1.0110,B,26.1,C,,,16.2,,-1.5,C,94.8,T,96.2,M,0.0,N,0.0,M*73
$YXXDR,A,0.1,D,PTCH,A,-1.8,D,ROLL*78
$HCHDT,4.4,T*29
$YXXDR,C,,C,WCHR,C,,C,WCHT,C,,C,HINX,P,0.9705,B,STNP*40
$WIMWV,91.1,R,0.3,N,A*19
$GPZDA,221351.60,19,11,2014,00,00*69
$HCHDT,4.4,T*29
$GPVTG,177.3,T,178.7,M,0.0,N,0.0,K,D*2D
$WIMWV,91.0,T,0.3,N,A*1E
$GPGGA,221351.80,4328.5715,N,09057.1078,W,2,9,1.2,344.1,M,-32.4,M,,*6D
$WIMDA,29.8548,I,1.0110,B,26.1,C,,,16.2,,-1.5,C,95.5,T,96.9,M,0.3,N,0.2,M*75
$YXXDR,A,0.1,D,PTCH,A,-1.8,D,ROLL*78
$HCHDT,4.0,T*2D
$YXXDR,C,,C,WCHR,C,,C,WCHT,C,,C,HINX,P,0.9705,B,STNP*40
$WIMWV,91.1,R,0.2,N,A*18
$GPZDA,221352.60,19,11,2014,00,00*6A
$HCHDT,4.2,T*2F
$GPVTG,181.0,T,182.4,M,0.1,N,0.1,K,D*21
$WIMWV,91.1,T,0.3,N,A*1F
$GPGGA,221352.80,4328.5714,N,09057.1078,W,2,9,1.2,344.1,M,-32.4,M,,*6F
$WIMDA,29.8548,I,1.0110,B,26.1,C,,,16.2,,-1.5,C,94.6,T,96.0,M,0.3,N,0.2,M*7E
$YXXDR,A,0.1,D,PTCH,A,-1.8,D,ROLL*78
$HCHDT,3.1,T*2B
$YXXDR,C,,C,WCHR,C,,C,WCHT,C,,C,HINX,P,0.9705,B,STNP*40
$WIMWV,359.6,R,0.0,N,A*2A
$GPZDA,221353.60,19,11,2014,00,00*6B
$HCHDT,3.5,T*2F
$GPVTG,184.3,T,185.7,M,0.0,N,0.0,K,D*23
$WIMWV,356.2,T,0.0,N,A*27
$GPGGA,221353.80,4328.5714,N,09057.1078,W,2,8,1.3,344.1,M,-32.4,M,,*6E
$WIMDA,29.8548,I,1.0110,B,26.1,C,,,16.2,,-1.5,C,0.0,T,1.4,M,0.0,N,0.0,M*7E
$YXXDR,A,0.1,D,PTCH,A,-1.7,D,ROLL*77
$HCHDT,3.4,T*2E
$YXXDR,C,,C,WCHR,C,,C,WCHT,C,,C,HINX,P,0.9704,B,STNP*41
$WIMWV,359.6,R,0.0,N,A*2A
$GPZDA,221354.60,19,11,2014,00,00*6C
$HCHDT,3.3,T*29
$GPVTG,184.6,T,186.0,M,0.0,N,0.0,K,D*22
$WIMWV,91.1,T,0.2,N,A*1E
$GPGGA,221354.80,4328.5714,N,09057.1078,W,2,8,1.3,344.1,M,-32.4,M,,*69
$WIMDA,29.8519,I,1.0109,B,26.1,C,,,16.2,,-1.5,C,0.0,T,1.4,M,0.0,N,0.0,M*72
$YXXDR,A,0.1,D,PTCH,A,-1.7,D,ROLL*77
$HCHDT,3.6,T*2C
$YXXDR,C,,C,WCHR,C,,C,WCHT,C,,C,HINX,P,0.9705,B,STNP*40
$WIMWV,359.6,R,0.0,N,A*2A
$GPZDA,221355.60,19,11,2014,00,00*6D
$HCHDT,3.3,T*29
$GPVTG,183.1,T,184.5,M,0.0,N,0.0,K,D*25
$WIMWV,357.1,T,0.0,N,A*25
$GPGGA,221355.80,4328.5714,N,09057.1078,W,2,8,1.3,344.1,M,-32.4,M,,*68
$WIMDA,29.8548,I,1.0110,B,26.1,C,,,16.2,,-1.5,C,0.0,T,1.4,M,0.0,N,0.0,M*7E
$YXXDR,A,0.1,D,PTCH,A,-1.7,D,ROLL*77
$HCHDT,4.1,T*2C
$YXXDR,C,,C,WCHR,C,,C,WCHT,C,,C,HINX,P,0.9705,B,STNP*40
$WIMWV,359.6,R,0.0,N,A*2A
$GPZDA,221356.60,19,11,2014,00,00*6E
$HCHDT,3.5,T*2F
$GPVTG,185.8,T,187.2,M,0.0,N,0.0,K,D*2E
$WIMWV,91.0,T,0.2,N,A*1F
$GPGGA,221356.80,4328.5714,N,09057.1078,W,2,8,1.3,344.1,M,-32.4,M,,*6B
$WIMDA,29.8548,I,1.0110,B,26.1,C,,,16.2,,-1.5,C,94.6,T,96.0,M,0.2,N,0.1,M*7C
$YXXDR,A,0.1,D,PTCH,A,-1.7,D,ROLL*77
$HCHDT,3.3,T*29
$YXXDR,C,,C,WCHR,C,,C,WCHT,C,,C,HINX,P,0.9705,B,STNP*40
$WIMWV,359.6,R,0.0,N,A*2A
$GPZDA,221357.60,19,11,2014,00,00*6F
$HCHDT,4.0,T*2D
$GPVTG,181.2,T,182.6,M,0.0,N,0.0,K,D*21
$WIMWV,356.7,T,0.0,N,A*22
$GPGGA,221357.80,4328.5714,N,09057.1079,W,2,8,1.3,344.1,M,-32.4,M,,*6B
$WIMDA,29.8548,I,1.0110,B,26.1,C,,,16.2,,-1.5,C,0.0,T,1.4,M,0.0,N,0.0,M*7E
$YXXDR,A,0.1,D,PTCH,A,-1.7,D,ROLL*77
$HCHDT,4.8,T*25
$YXXDR,C,,C,WCHR,C,,C,WCHT,C,,C,HINX,P,0.9705,B,STNP*40
$WIMWV,359.6,R,0.0,N,A*2A
$GPZDA,221358.60,19,11,2014,00,00*60
$HCHDT,3.0,T*2A
$GPVTG,177.4,T,178.8,M,0.0,N,0.0,K,D*25
$WIMWV,356.8,T,0.0,N,A*2D
$GPGGA,221358.80,4328.5714,N,09057.1079,W,2,8,1.3,344.1,M,-32.4,M,,*64
$WIMDA,29.8548,I,1.0110,B,26.1,C,,,16.1,,-1.6,C,95.1,T,96.5,M,0.2,N,0.1,M*7F
$YXXDR,A,0.1,D,PTCH,A,-1.7,D,ROLL*77
$HCHDT,4.5,T*28
$YXXDR,C,,C,WCHR,C,,C,WCHT,C,,C,HINX,P,0.9706,B,STNP*43
$WIMWV,91.1,R,0.2,N,A*18
$GPZDA,221359.60,19,11,2014,00,00*61
$HCHDT,4.3,T*2E
$GPVTG,186.9,T,188.3,M,0.0,N,0.0,K,D*22
$WIMWV,139.2,T,0.3,N,A*2F
$GPGGA,221359.80,4328.5714,N,09057.1079,W,2,8,1.3,344.1,M,-32.4,M,,*65
$WIMDA,29.8607,I,1.0112,B,26.1,C,,,16.2,,-1.5,C,140.7,T,142.1,M,0.3,N,0.2,M*74
$YXXDR,A,0.1,D,PTCH,A,-1.7,D,ROLL*77
$HCHDT,3.8,T*22
$YXXDR,C,,C,WCHR,C,,C,WCHT,C,,C,HINX,P,0.9707,B,STNP*42
$WIMWV,359.6,R,0.0,N,A*2A
$GPZDA,221400.60,19,11,2014,00,00*6A
$HCHDT,3.4,T*2E
$GPVTG,176.9,T,178.3,M,0.0,N,0.0,K,D*22
$WIMWV,356.6,T,0.0,N,A*23
$GPGGA,221400.80,4328.5714,N,09057.1079,W,2,8,1.3,344.1,M,-32.4,M,,*6E
$WIMDA,29.8637,I,1.0113,B,26.1,C,,,16.2,,-1.5,C,0.0,T,1.4,M,0.0,N,0.0,M*76
$YXXDR,A,0.1,D,PTCH,A,-1.7,D,ROLL*77
$HCHDT,3.7,T*2D
$YXXDR,C,,C,WCHR,C,,C,WCHT,C,,C,HINX,P,0.9705,B,STNP*40
$WIMWV,359.6,R,0.0,N,A*2A
$GPZDA,221401.60,19,11,2014,00,00*6B
$HCHDT,3.4,T*2E
$GPVTG,183.7,T,185.1,M,0.0,N,0.0,K,D*26
$WIMWV,91.1,T,0.2,N,A*1E
$GPGGA,221401.80,4328.5714,N,09057.1079,W,2,8,1.3,344.1,M,-32.4,M,,*6F
$WIMDA,29.8548,I,1.0110,B,26.1,C,,,16.2,,-1.5,C,0.0,T,1.4,M,0.0,N,0.0,M*7E
$YXXDR,A,0.1,D,PTCH,A,-1.7,D,ROLL*77
$HCHDT,3.8,T*22
$YXXDR,C,,C,WCHR,C,,C,WCHT,C,,C,HINX,P,0.9705,B,STNP*40
$WIMWV,359.6,R,0.0,N,A*2A
$GPZDA,221402.60,19,11,2014,00,00*68
$HCHDT,3.2,T*28
$GPVTG,320.1,T,321.5,M,0.0,N,0.0,K,D*23
$WIMWV,356.7,T,0.0,N,A*22
$GPGGA,221402.80,4328.5714,N,09057.1079,W,2,8,1.3,344.1,M,-32.4,M,,*6C
$WIMDA,29.8548,I,1.0110,B,26.1,C,,,16.2,,-1.5,C,0.0,T,1.4,M,0.0,N,0.0,M*7E
$YXXDR,A,0.1,D,PTCH,A,-1.7,D,ROLL*77
$HCHDT,3.1,T*2B
$YXXDR,C,,C,WCHR,C,,C,WCHT,C,,C,HINX,P,0.9704,B,STNP*41
$WIMWV,359.6,R,0.0,N,A*2A
$GPZDA,221403.60,19,11,2014,00,00*69
$HCHDT,3.3,T*29
$GPVTG,335.6,T,337.0,M,0.0,N,0.0,K,D*22
$WIMWV,355.7,T,0.0,N,A*21
$GPGGA,221403.80,4328.5714,N,09057.1079,W,2,8,1.3,344.1,M,-32.4,M,,*6D
$WIMDA,29.8519,I,1.0109,B,26.1,C,,,16.2,,-1.5,C,0.0,T,1.4,M,0.0,N,0.0,M*72
$YXXDR,A,0.1,D,PTCH,A,-1.7,D,ROLL*77
$HCHDT,3.2,T*28
$YXXDR,C,,C,WCHR,C,,C,WCHT,C,,C,HINX,P,0.9704,B,STNP*41
$WIMWV,359.6,R,0.0,N,A*2A
$GPZDA,221404.60,19,11,2014,00,00*6E
$HCHDT,3.2,T*28
$GPVTG,182.7,T,184.1,M,0.0,N,0.0,K,D*26
$WIMWV,356.3,T,0.0,N,A*26
$GPGGA,221404.80,4328.5714,N,09057.1079,W,2,8,1.3,344.1,M,-32.4,M,,*6A
$WIMDA,29.8519,I,1.0109,B,26.1,C,,,16.2,,-1.5,C,0.0,T,1.4,M,0.0,N,0.0,M*72
$YXXDR,A,0.0,D,PTCH,A,-1.8,D,ROLL*79
$HCHDT,3.1,T*2B
$YXXDR,C,,C,WCHR,C,,C,WCHT,C,,C,HINX,P,0.9705,B,STNP*40
$WIMWV,359.6,R,0.0,N,A*2A
$GPZDA,221405.60,19,11,2014,00,00*6F
$HCHDT,3.0,T*2A
$GPVTG,163.8,T,165.2,M,0.0,N,0.0,K,D*2A
$WIMWV,356.5,T,0.0,N,A*20
$GPGGA,221405.80,4328.5714,N,09057.1079,W,2,8,1.3,344.1,M,-32.4,M,,*6B
$WIMDA,29.8548,I,1.0110,B,26.1,C,,,16.2,,-1.5,C,0.0,T,1.4,M,0.0,N,0.0,M*7E
$YXXDR,A,0.0,D,PTCH,A,-1.8,D,ROLL*79
$HCHDT,3.0,T*2A
$YXXDR,C,,C,WCHR,C,,C,WCHT,C,,C,HINX,P,0.9705,B,STNP*40
$WIMWV,359.6,R,0.0,N,A*2A
$GPZDA,221406.60,19,11,2014,00,00*6C
$HCHDT,3.2,T*28
$GPVTG,257.5,T,258.9,M,0.0,N,0.0,K,D*25
$WIMWV,356.3,T,0.0,N,A*26
$GPGGA,221406.80,4328.5714,N,09057.1079,W,2,8,1.3,344.1,M,-32.4,M,,*68
$WIMDA,29.8548,I,1.0110,B,26.1,C,,,16.2,,-1.5,C,0.0,T,1.4,M,0.0,N,0.0,M*7E
$YXXDR,A,0.1,D,PTCH,A,-1.7,D,ROLL*77
$HCHDT,3.9,T*23
$YXXDR,C,,C,WCHR,C,,C,WCHT,C,,C,HINX,P,0.9705,B,STNP*40
$WIMWV,359.6,R,0.0,N,A*2A
$GPZDA,221407.60,19,11,2014,00,00*6D
$HCHDT,4.2,T*2F
$GPVTG,171.4,T,172.8,M,0.0,N,0.0,K,D*29
$WIMWV,356.3,T,0.0,N,A*26
$GPGGA,221407.80,4328.5714,N,09057.1079,W,2,8,1.3,344.0,M,-32.4,M,,*68
$WIMDA,29.8548,I,1.0110,B,26.1,C,,,16.3,,-1.4,C,0.0,T,1.4,M,0.0,N,0.0,M*7E
$YXXDR,A,0.0,D,PTCH,A,-1.8,D,ROLL*79
$HCHDT,3.2,T*28
$YXXDR,C,,C,WCHR,C,,C,WCHT,C,,C,HINX,P,0.9705,B,STNP*40
$WIMWV,359.6,R,0.0,N,A*2A
$GPZDA,221408.60,19,11,2014,00,00*62
$HCHDT,3.1,T*2B
$GPVTG,262.7,T,264.1,M,0.0,N,0.0,K,D*26
$WIMWV,356.3,T,0.0,N,A*26
$GPGGA,221408.80,4328.5714,N,09057.1079,W,2,8,1.3,344.0,M,-32.4,M,,*67
$WIMDA,29.8548,I,1.0110,B,26.1,C,,,16.3,,-1.4,C,184.8,T,186.2,M,0.2,N,0.1,M*70
$YXXDR,A,0.0,D,PTCH,A,-1.8,D,ROLL*79
$HCHDT,3.3,T*29
$YXXDR,C,,C,WCHR,C,,C,WCHT,C,,C,HINX,P,0.9704,B,STNP*41
$WIMWV,359.6,R,0.0,N,A*2A
$GPZDA,221409.60,19,11,2014,00,00*63
$HCHDT,3.3,T*29
$GPVTG,204.1,T,205.5,M,0.0,N,0.0,K,D*23
$WIMWV,356.7,T,0.0,N,A*22
$GPGGA,221409.80,4328.5714,N,09057.1079,W,2,8,1.3,344.0,M,-32.4,M,,*66
$WIMDA,29.8519,I,1.0109,B,26.1,C,,,16.2,,-1.5,C,0.0,T,1.4,M,0.0,N,0.0,M*72
$YXXDR,A,0.2,D,PTCH,A,-1.9,D,ROLL*7A
$HCHDT,3.5,T*2F
$YXXDR,C,,C,WCHR,C,,C,WCHT,C,,C,HINX,P,0.9705,B,STNP*40
$WIMWV,359.6,R,0.0,N,A*2A
$GPZDA,221410.60,19,11,2014,00,00*6B
$HCHDT,3.1,T*2B
$GPVTG,147.1,T,148.5,M,0.0,N,0.0,K,D*2D
$WIMWV,356.7,T,0.0,N,A*22
$GPGGA,221410.80,4328.5714,N,09057.1079,W,2,8,1.3,344.0,M,-32.4,M,,*6E
$WIMDA,29.8548,I,1.0110,B,26.1,C,,,16.2,,-1.5,C,0.0,T,1.4,M,0.0,N,0.0,M*7E
$YXXDR,A,0.1,D,PTCH,A,-1.8,D,ROLL*78
$HCHDT,3.2,T*28
$YXXDR,C,,C,WCHR,C,,C,WCHT,C,,C,HINX,P,0.9705,B,STNP*40
$WIMWV,359.6,R,0.0,N,A*2A
$GPZDA,221411.60,19,11,2014,00,00*6A
$HCHDT,3.7,T*2D
$GPVTG,187.3,T,188.7,M,0.0,N,0.0,K,D*2D
$WIMWV,356.1,T,0.0,N,A*24
$GPGGA,221411.80,4328.5714,N,09057.1079,W,2,8,1.3,344.0,M,-32.4,M,,*6F
$WIMDA,29.8548,I,1.0110,B,26.1,C,,,16.2,,-1.5,C,0.0,T,1.4,M,0.0,N,0.0,M*7E
$YXXDR,A,0.2,D,PTCH,A,-1.9,D,ROLL*7A
$HCHDT,4.8,T*25
$YXXDR,C,,C,WCHR,C,,C,WCHT,C,,C,HINX,P,0.9705,B,STNP*40
$WIMWV,91.1,R,0.2,N,A*18
$GPZDA,221412.60,19,11,2014,00,00*69
$HCHDT,3.5,T*2F
$GPVTG,218.5,T,219.9,M,0.0,N,0.0,K,D*2B
$WIMWV,356.2,T,0.0,N,A*27
$GPGGA,221412.80,4328.5714,N,09057.1079,W,2,8,1.3,344.0,M,-32.4,M,,*6C
$WIMDA,29.8548,I,1.0110,B,26.1,C,,,16.2,,-1.5,C,94.6,T,96.0,M,0.2,N,0.1,M*7C
$YXXDR,A,0.1,D,PTCH,A,-1.8,D,ROLL*78
$HCHDT,3.3,T*29
$YXXDR,C,,C,WCHR,C,,C,WCHT,C,,C,HINX,P,0.9706,B,STNP*43
$WIMWV,359.6,R,0.0,N,A*2A
$GPZDA,221413.60,19,11,2014,00,00*68
$HCHDT,3.2,T*28
$GPVTG,325.5,T,326.9,M,0.0,N,0.0,K,D*29
$WIMWV,356.9,T,0.0,N,A*2C
$GPGGA,221413.80,4328.5714,N,09057.1079,W,2,9,1.2,344.0,M,-32.4,M,,*6D
$WIMDA,29.8578,I,1.0111,B,26.1,C,,,16.2,,-1.5,C,0.0,T,1.4,M,0.0,N,0.0,M*7C
$YXXDR,A,0.1,D,PTCH,A,-1.8,D,ROLL*78
$HCHDT,3.7,T*2D
$YXXDR,C,,C,WCHR,C,,C,WCHT,C,,C,HINX,P,0.9704,B,STNP*41
$WIMWV,359.6,R,0.0,N,A*2A
$GPZDA,221414.60,19,11,2014,00,00*6F
$HCHDT,4.8,T*25
$GPVTG,52.7,T,54.1,M,0.0,N,0.0,K,D*26
$WIMWV,356.9,T,0.0,N,A*2C
$GPGGA,221414.80,4328.5714,N,09057.1079,W,2,8,1.3,344.0,M,-32.4,M,,*6A
$WIMDA,29.8519,I,1.0109,B,26.1,C,,,16.2,,-1.5,C,0.0,T,1.4,M,0.0,N,0.0,M*72
$YXXDR,A,0.2,D,PTCH,A,-1.9,D,ROLL*7A
$HCHDT,4.1,T*2C
$YXXDR,C,,C,WCHR,C,,C,WCHT,C,,C,HINX,P,0.9705,B,STNP*40
$WIMWV,359.6,R,0.0,N,A*2A
$GPZDA,221415.60,19,11,2014,00,00*6E
$HCHDT,3.2,T*28
$GPVTG,106.5,T,107.9,M,0.0,N,0.0,K,D*2B
$WIMWV,356.3,T,0.0,N,A*26
$GPGGA,221415.80,4328.5714,N,09057.1079,W,2,8,1.3,344.0,M,-32.4,M,,*6B
$WIMDA,29.8548,I,1.0110,B,26.1,C,,,16.2,,-1.5,C,0.0,T,1.4,M,0.0,N,0.0,M*7E
$YXXDR,A,0.2,D,PTCH,A,-1.9,D,ROLL*7A
$HCHDT,3.5,T*2F
$YXXDR,C,,C,WCHR,C,,C,WCHT,C,,C,HINX,P,0.9705,B,STNP*40
$WIMWV,91.1,R,0.2,N,A*18
$GPZDA,221416.60,19,11,2014,00,00*6D
$HCHDT,3.5,T*2F
$GPVTG,140.0,T,141.4,M,0.0,N,0.0,K,D*23
$WIMWV,91.0,T,0.1,N,A*1C
$GPGGA,221416.80,4328.5714,N,09057.1079,W,2,8,1.3,344.0,M,-32.4,M,,*68
$WIMDA,29.8548,I,1.0110,B,26.1,C,,,16.1,,-1.6,C,94.7,T,96.1,M,0.2,N,0.1,M*7C
$YXXDR,A,0.2,D,PTCH,A,-1.9,D,ROLL*7A
$HCHDT,4.1,T*2C
$YXXDR,C,,C,WCHR,C,,C,WCHT,C,,C,HINX,P,0.9705,B,STNP*40
$WIMWV,359.6,R,0.0,N,A*2A
$GPZDA,221417.50,19,11,2014,00,00*6F
$HCHDT,3.3,T*29
$GPVTG,106.8,T,108.2,M,0.0,N,0.0,K,D*22
$WIMWV,356.4,T,0.0,N,A*21
$GPGGA,221417.80,4328.5714,N,09057.1079,W,2,8,1.3,344.0,M,-32.4,M,,*69
$WIMDA,29.8548,I,1.0110,B,26.1,C,,,16.2,,-1.5,C,0.0,T,1.4,M,0.0,N,0.0,M*7E
$YXXDR,A,0.2,D,PTCH,A,-1.9,D,ROLL*7A
$HC
